[{"id":"chubby-squirrel-brewing-company-fairfax","name":"Chubby Squirrel Brewing Company","brewery_type":"brewpub","street":"10382 Willard Way","address_2":null,"address_3":null,"city":"Fairfax","state":"Virginia","county_province":null,"postal_code":"22030-2508","country":"United States","longitude":"-77.30201557","latitude":"38.84818941","phone":"5405588040","website_url":"http://www.chubbysquirrelbrewing.com","updated_at":"2021-10-23T02:24:55.243Z","created_at":"2021-10-23T02:24:55.243Z"},{"id":"caboose-brewing-co-vienna","name":"Caboose Brewing Co.","brewery_type":"brewpub","street":"520 Mill St NE","address_2":null,"address_3":null,"city":"Vienna","state":"Virginia","county_province":null,"postal_code":"22180-4526","country":"United States","longitude":"-77.2705542","latitude":"38.9077525","phone":"7034734870","website_url":"http://caboosebrewing.com","updated_at":"2021-10-23T02:24:55.243Z","created_at":"2021-10-23T02:24:55.243Z"},{"id":"lake-anne-brew-house-reston","name":"Lake Anne Brew House","brewery_type":"micro","street":"11424 Washington Plz W","address_2":null,"address_3":null,"city":"Reston","state":"Virginia","county_province":null,"postal_code":"20190-4310","country":"United States","longitude":"-77.3411707","latitude":"38.9682812","phone":"5717582739","website_url":"http://www.lakeannebrewhouse.com","updated_at":"2021-10-23T02:24:55.243Z","created_at":"2021-10-23T02:24:55.243Z"},{"id":"audacious-aleworks-falls-church","name":"Audacious Aleworks","brewery_type":"micro","street":"110 E Fairfax St","address_2":null,"address_3":null,"city":"Falls Church","state":"Virginia","county_province":null,"postal_code":"22046","country":"United States","longitude":"-77.17234359","latitude":"38.88076482","phone":null,"website_url":null,"updated_at":"2021-10-23T02:24:55.243Z","created_at":"2021-10-23T02:24:55.243Z"},{"id":"ono-brewing-company-chantilly","name":"Ono Brewing Company","brewery_type":"micro","street":"4520 Daly Dr Ste 102","address_2":null,"address_3":null,"city":"Chantilly","state":"Virginia","county_province":null,"postal_code":"20151-3735","country":"United States","longitude":"-77.44370063","latitude":"38.88327875","phone":"5714096662","website_url":"http://www.onobrewco.com","updated_at":"2021-10-23T02:24:55.243Z","created_at":"2021-10-23T02:24:55.243Z"},{"id":"great-american-restaurants-sweetwater-tavern-centreville","name":"Great American Restaurants, Sweetwater Tavern","brewery_type":"brewpub","street":"14250 Sweetwater Ln","address_2":null,"address_3":null,"city":"Centreville","state":"Virginia","county_province":null,"postal_code":"20121-5336","country":"United States","longitude":"-77.43946496","latitude":"38.82898546","phone":"7034491100","website_url":"http://www.greatamericanrestaurants.com","updated_at":"2021-10-23T02:24:55.243Z","created_at":"2021-10-23T02:24:55.243Z"},{"id":"beltway-brewing-company-sterling","name":"Beltway Brewing Company","brewery_type":"micro","street":"22620 Davis Dr Ste 110","address_2":null,"address_3":null,"city":"Sterling","state":"Virginia","county_province":null,"postal_code":"20164-4470","country":"United States","longitude":"-77.4172876","latitude":"38.9914289","phone":"5719892739","website_url":"http://www.beltwaybrewco.com","updated_at":"2021-10-23T02:24:55.243Z","created_at":"2021-10-23T02:24:55.243Z"},{"id":"rocket-frog-brewing-company-sterling","name":"Rocket Frog Brewing Company","brewery_type":"micro","street":"22560 Glenn Dr Ste 103","address_2":null,"address_3":null,"city":"Sterling","state":"Virginia","county_province":null,"postal_code":"20164-7143","country":"United States","longitude":"-77.4292242","latitude":"38.9992947","phone":"7032445711","website_url":"http://www.rocketfrogbeer.com","updated_at":"2021-10-23T02:24:55.243Z","created_at":"2021-10-23T02:24:55.243Z"},{"id":"new-district-brewing-company-arlington","name":"New District Brewing Company","brewery_type":"micro","street":"2709 S Oakland St","address_2":null,"address_3":null,"city":"Arlington","state":"Virginia","county_province":null,"postal_code":"22206-2309","country":"United States","longitude":"-77.08966299","latitude":"38.84421984","phone":"7038885820","website_url":"http://www.newdistrictbrewing.com","updated_at":"2021-10-23T02:24:55.243Z","created_at":"2021-10-23T02:24:55.243Z"},{"id":"port-city-brewing-co-alexandria","name":"Port City Brewing Co.","brewery_type":"regional","street":"3950 Wheeler Ave","address_2":null,"address_3":null,"city":"Alexandria","state":"Virginia","county_province":null,"postal_code":"22304-6409","country":"United States","longitude":"-77.10149229","latitude":"38.80803165","phone":"7037972739","website_url":"http://www.portcitybrewing.com","updated_at":"2021-10-23T02:24:55.243Z","created_at":"2021-10-23T02:24:55.243Z"},{"id":"eavesdrop-brewery-manassas","name":"Eavesdrop Brewery","brewery_type":"micro","street":"7223 Centreville Rd Ste 115","address_2":null,"address_3":null,"city":"Manassas","state":"Virginia","county_province":null,"postal_code":"20111","country":"United States","longitude":"-77.469","latitude":"38.752531","phone":"7034208955","website_url":"http://www.eavesdropbrewery.com","updated_at":"2021-10-23T02:24:55.243Z","created_at":"2021-10-23T02:24:55.243Z"},{"id":"sinistral-brewing-company-manassas","name":"Sinistral Brewing Company","brewery_type":"micro","street":"9419 Main St","address_2":null,"address_3":null,"city":"Manassas","state":"Virginia","county_province":null,"postal_code":"20110","country":"United States","longitude":"-77.471427","latitude":"38.75099522","phone":"7036864575","website_url":"http://www.sinistralbrewingcompany.com","updated_at":"2021-10-23T02:24:55.243Z","created_at":"2021-10-23T02:24:55.243Z"},{"id":"public-house-kitchen-and-brewery-manassas","name":"Public House Kitchen and Brewery","brewery_type":"brewpub","street":"9406 Battle St","address_2":null,"address_3":null,"city":"Manassas","state":"Virginia","county_province":null,"postal_code":"20110-5431","country":"United States","longitude":"-77.4726206","latitude":"38.7513396","phone":"5712921427","website_url":"http://www.badwolfpublichouse.com","updated_at":"2021-10-23T02:24:55.243Z","created_at":"2021-10-23T02:24:55.243Z"},{"id":"badwolf-brewing-company-manassas-2","name":"BadWolf Brewing Company","brewery_type":"micro","street":"9776 Center St","address_2":null,"address_3":null,"city":"Manassas","state":"Virginia","county_province":null,"postal_code":"20110-4128","country":"United States","longitude":"-77.48972051","latitude":"38.75356183","phone":"5713589774","website_url":"http://www.badwolfbrewingcompany.com","updated_at":"2021-10-23T02:24:55.243Z","created_at":"2021-10-23T02:24:55.243Z"},{"id":"waters-end-brewery-lake-ridge","name":"Water's End Brewery","brewery_type":"micro","street":"12425 Dillingham Sq","address_2":null,"address_3":null,"city":"Lake Ridge","state":"Virginia","county_province":null,"postal_code":"22192-5252","country":"United States","longitude":"-77.31791007","latitude":"38.68474967","phone":"5409075689","website_url":"http://watersendbrewery.com","updated_at":"2021-10-23T02:24:55.243Z","created_at":"2021-10-23T02:24:55.243Z"},{"id":"old-ox-brewery-llc-ashburn","name":"Old Ox Brewery LLC","brewery_type":"micro","street":"44652 Guilford Dr Ste 114","address_2":null,"address_3":null,"city":"Ashburn","state":"Virginia","county_province":null,"postal_code":"20147-6006","country":"United States","longitude":"-77.45608031","latitude":"39.02226368","phone":"7037298375","website_url":"http://www.oldoxbrewery.com","updated_at":"2021-10-23T02:24:55.243Z","created_at":"2021-10-23T02:24:55.243Z"},{"id":"heritage-brewing-co-manassas","name":"Heritage Brewing Co","brewery_type":"micro","street":"9436 Center Point Ln","address_2":null,"address_3":null,"city":"Manassas","state":"Virginia","county_province":null,"postal_code":"20110-1810","country":"United States","longitude":"-77.48841476","latitude":"38.75075083","phone":"5712081355","website_url":"http://www.heritagebrews.com","updated_at":"2021-10-23T02:24:55.243Z","created_at":"2021-10-23T02:24:55.243Z"},{"id":"lost-rhino-brewing-co-ashburn","name":"Lost Rhino Brewing Co","brewery_type":"micro","street":"21730 Red Rum Dr Ste 142","address_2":null,"address_3":null,"city":"Ashburn","state":"Virginia","county_province":null,"postal_code":"20147-5870","country":"United States","longitude":"-77.47673436","latitude":"39.01564409","phone":"5712912083","website_url":"http://www.lostrhino.com","updated_at":"2021-10-23T02:24:55.243Z","created_at":"2021-10-23T02:24:55.243Z"},{"id":"rock-bottom-brewery-bethesda-bethesda","name":"Rock Bottom Brewery - Bethesda","brewery_type":"brewpub","street":"7900 Norfolk Ave","address_2":null,"address_3":null,"city":"Bethesda","state":"Maryland","county_province":null,"postal_code":"20814-2502","country":"United States","longitude":"-77.0976716","latitude":"38.9890033","phone":"3016521311","website_url":"http://www.rockbottom.com","updated_at":"2021-10-23T02:24:55.243Z","created_at":"2021-10-23T02:24:55.243Z"},{"id":"lidl-us-llc-arlington","name":"Lidl US LLC","brewery_type":"contract","street":"3500 S Clark St","address_2":null,"address_3":null,"city":"Arlington","state":"Virginia","county_province":null,"postal_code":"22202-4045","country":"United States","longitude":"-77.051863","latitude":"38.842856","phone":null,"website_url":null,"updated_at":"2021-10-23T02:24:55.243Z","created_at":"2021-10-23T02:24:55.243Z"},{"id":"hops-grillhouse-and-brewery-alexandria","name":"Hops Grillhouse and Brewery","brewery_type":"contract","street":"3625 Jefferson Davis Hwy","address_2":null,"address_3":null,"city":"Alexandria","state":"Virginia","county_province":null,"postal_code":"22305-3133","country":"United States","longitude":"-77.0523751","latitude":"38.8399578","phone":"7038379107","website_url":"http://www.hopsrestaurants.com","updated_at":"2021-10-23T02:24:55.243Z","created_at":"2021-10-23T02:24:55.243Z"},{"id":"gordon-biersch-brewery-restaurant-washington-washington","name":"Gordon Biersch Brewery Restaurant - Washington","brewery_type":"brewpub","street":"900 F St NW","address_2":null,"address_3":null,"city":"Washington","state":"District of Columbia","county_province":null,"postal_code":"20004-1404","country":"United States","longitude":"-77.0243479","latitude":"38.8971375","phone":"2027835454","website_url":"http://www.gordonbiersch.com/locations/washington-dc?action=view","updated_at":"2021-10-23T02:24:55.243Z","created_at":"2021-10-23T02:24:55.243Z"},{"id":"district-chophouse-and-brewery-washington","name":"District ChopHouse and Brewery","brewery_type":"brewpub","street":"509 7th St NW","address_2":null,"address_3":null,"city":"Washington","state":"District of Columbia","county_province":null,"postal_code":"20004-1600","country":"United States","longitude":"-77.0216694","latitude":"38.8965132","phone":"2023473434","website_url":"http://www.districtchophouse.com","updated_at":"2021-10-23T02:24:55.243Z","created_at":"2021-10-23T02:24:55.243Z"},{"id":"right-proper-brewing-company-washington-2","name":"Right Proper Brewing Company","brewery_type":"brewpub","street":"624 T St NW","address_2":null,"address_3":null,"city":"Washington","state":"District of Columbia","county_province":null,"postal_code":"20001-5119","country":"United States","longitude":"-77.0213751","latitude":"38.9154119","phone":"2026072337","website_url":"http://www.rightproperbrewery.com","updated_at":"2021-10-23T02:24:55.243Z","created_at":"2021-10-23T02:24:55.243Z"},{"id":"admerk-corp-inc-washington","name":"AdMerk Corp. Inc.","brewery_type":"contract","street":"20 F St NW","address_2":null,"address_3":null,"city":"Washington","state":"District of Columbia","county_province":null,"postal_code":"20001-6700","country":"United States","longitude":"-77.0094205","latitude":"38.89742205","phone":"6172028069","website_url":"http://www.paugustin.com","updated_at":"2021-10-23T02:24:55.243Z","created_at":"2021-10-23T02:24:55.243Z"},{"id":"capitol-city-brewing-co-washington","name":"Capitol City Brewing Co","brewery_type":"contract","street":"2 Massachusetts Ave NE","address_2":null,"address_3":null,"city":"Washington","state":"District of Columbia","county_province":null,"postal_code":"20002-4945","country":"United States","longitude":"-77.0082686","latitude":"38.8979293","phone":"2028422337","website_url":"http://www.capcitybrew.com","updated_at":"2021-10-23T02:24:55.243Z","created_at":"2021-10-23T02:24:55.243Z"},{"id":"bardo-brewpub-washington","name":"Bardo Brewpub","brewery_type":"micro","street":"25 Potomac Ave SE","address_2":null,"address_3":null,"city":"Washington","state":"District of Columbia","county_province":null,"postal_code":"20003-3670","country":"United States","longitude":"-77.00658302","latitude":"38.87165373","phone":"7622337070","website_url":"http://www.bardo.beer","updated_at":"2021-10-23T02:24:55.243Z","created_at":"2021-10-23T02:24:55.243Z"},{"id":"gordon-biersch-brewery-restaurant-navy-yard-washington","name":"Gordon Biersch Brewery Restaurant - Navy  Yard","brewery_type":"brewpub","street":"100 M St SE","address_2":null,"address_3":null,"city":"Washington","state":"District of Columbia","county_province":null,"postal_code":"20003-3519","country":"United States","longitude":"-77.0052971","latitude":"38.8766834","phone":"2024842739","website_url":"http://www.gordonbiersch.com/locations/navy-yard?action=view","updated_at":"2021-10-23T02:24:55.243Z","created_at":"2021-10-23T02:24:55.243Z"},{"id":"bluejacket-washington","name":"Bluejacket","brewery_type":"brewpub","street":"300 Tingey St SE","address_2":null,"address_3":null,"city":"Washington","state":"District of Columbia","county_province":null,"postal_code":"20003-4625","country":"United States","longitude":"-77.0006981","latitude":"38.8750965","phone":null,"website_url":"http://www.bluejacketdc.com","updated_at":"2021-10-23T02:24:55.243Z","created_at":"2021-10-23T02:24:55.243Z"},{"id":"denizens-brewing-company-silver-spring","name":"Denizens Brewing Company","brewery_type":"brewpub","street":"1115 E West Hwy","address_2":null,"address_3":null,"city":"Silver Spring","state":"Maryland","county_province":null,"postal_code":"20910-4852","country":"United States","longitude":"-77.02848142","latitude":"38.98957715","phone":"3015579818","website_url":"http://www.denizensbrewingco.com","updated_at":"2021-10-23T02:24:55.243Z","created_at":"2021-10-23T02:24:55.243Z"},{"id":"right-proper-brewing-company-washington-1","name":"Right Proper Brewing Company","brewery_type":"micro","street":"920 Girard St NE","address_2":null,"address_3":null,"city":"Washington","state":"District of Columbia","county_province":null,"postal_code":"20017-3424","country":"United States","longitude":"-76.99307078","latitude":"38.9267988","phone":"2026072337","website_url":"http://www.rightproperbrewing.com","updated_at":"2021-10-23T02:24:55.243Z","created_at":"2021-10-23T02:24:55.243Z"},{"id":"hellbender-brewing-company-washington","name":"Hellbender Brewing Company","brewery_type":"micro","street":"5788 2nd St NE","address_2":null,"address_3":null,"city":"Washington","state":"District of Columbia","county_province":null,"postal_code":"20011-2524","country":"United States","longitude":"-77.0053314","latitude":"38.9603005","phone":"2022301030","website_url":"http://www.hellbenderbeer.com","updated_at":"2021-10-23T02:24:55.243Z","created_at":"2021-10-23T02:24:55.243Z"},{"id":"phase-2-brewing-lansdowne","name":"Phase 2 Brewing","brewery_type":"brewpub","street":"19382 Diamond Lake Drive","address_2":null,"address_3":null,"city":"Lansdowne","state":"Virginia","county_province":null,"postal_code":"20176","country":"United States","longitude":"-77.4939698","latitude":"39.0808996","phone":"5409870219","website_url":"http://www.phase2brewing.com","updated_at":"2021-10-23T02:24:55.243Z","created_at":"2021-10-23T02:24:55.243Z"},{"id":"the-public-option-washington","name":"The Public Option","brewery_type":"brewpub","street":"1601 Rhode Island Ave NE","address_2":null,"address_3":null,"city":"Washington","state":"District of Columbia","county_province":null,"postal_code":"20018-1841","country":"United States","longitude":"-76.9817377","latitude":"38.926148","phone":"2023975129","website_url":"http://www.thepublicoptiondc.com","updated_at":"2021-10-23T02:24:55.243Z","created_at":"2021-10-23T02:24:55.243Z"},{"id":"saints-row-brewing-rockville","name":"Saints Row Brewing","brewery_type":"micro","street":"1211 Taft St","address_2":null,"address_3":null,"city":"Rockville","state":"Maryland","county_province":null,"postal_code":"20850-1344","country":"United States","longitude":"-77.13401808","latitude":"39.09361715","phone":null,"website_url":"http://www.saintsrowbeer.com","updated_at":"2021-10-23T02:24:55.243Z","created_at":"2021-10-23T02:24:55.243Z"},{"id":"true-respite-brewing-company-derwood","name":"True Respite Brewing Company","brewery_type":"micro","street":"7301 Calhoun Pl Ste 600","address_2":null,"address_3":null,"city":"Derwood","state":"Maryland","county_province":null,"postal_code":"20855-2740","country":"United States","longitude":"-77.152035","latitude":"39.108112","phone":"3012848447","website_url":"http://www.truerespite.com","updated_at":"2021-10-23T02:24:55.243Z","created_at":"2021-10-23T02:24:55.243Z"},{"id":"greene-growlers-gaithersburg","name":"Greene Growlers","brewery_type":"brewpub","street":"227 E Diamond Ave","address_2":null,"address_3":null,"city":"Gaithersburg","state":"Maryland","county_province":null,"postal_code":"20877","country":"United States","longitude":"-77.19355584","latitude":"39.1419364","phone":"2402616196","website_url":"http://www.greenegrowlers.com","updated_at":"2021-10-23T02:24:55.243Z","created_at":"2021-10-23T02:24:55.243Z"},{"id":"loudoun-brewing-co-leesburg","name":"Loudoun Brewing Co","brewery_type":"micro","street":"310 E Market St","address_2":null,"address_3":null,"city":"Leesburg","state":"Virginia","county_province":null,"postal_code":"20176-4101","country":"United States","longitude":"-77.532576","latitude":"39.09743","phone":"5712236097","website_url":"http://www.loudounbrewing.com","updated_at":"2021-10-23T02:24:55.243Z","created_at":"2021-10-23T02:24:55.243Z"},{"id":"bird-brain-brewing-company-leesburg","name":"Bird Brain Brewing Company","brewery_type":"contract","street":"435 Nikki Ter SE","address_2":null,"address_3":null,"city":"Leesburg","state":"Virginia","county_province":null,"postal_code":"20175-8962","country":"United States","longitude":"-77.54348368","latitude":"39.09389489","phone":null,"website_url":null,"updated_at":"2021-10-23T02:24:55.243Z","created_at":"2021-10-23T02:24:55.243Z"},{"id":"streetcar-82-brewing-co-hyattsville","name":"Streetcar 82 Brewing Co.","brewery_type":"micro","street":"4824 Rhode Island Ave","address_2":null,"address_3":null,"city":"Hyattsville","state":"Maryland","county_province":null,"postal_code":"20781-2034","country":"United States","longitude":"-76.9430028","latitude":"38.9493263","phone":"2407820152","website_url":"http://www.streetcar82brewing.com","updated_at":"2021-10-23T02:24:55.243Z","created_at":"2021-10-23T02:24:55.243Z"},{"id":"franklins-general-store-hyattsville","name":"Franklins General Store","brewery_type":"micro","street":"5123 Baltimore Ave","address_2":null,"address_3":null,"city":"Hyattsville","state":"Maryland","county_province":null,"postal_code":"20781-2042","country":"United States","longitude":"-76.94074114","latitude":"38.95194399","phone":"3019272740","website_url":"http://Franklinsbrewery.com","updated_at":"2021-10-23T02:24:55.243Z","created_at":"2021-10-23T02:24:55.243Z"},{"id":"mud-hound-brewing-co-macdowell-brew-kitchen-leesburg","name":"Mud Hound Brewing Co / MacDowell Brew Kitchen","brewery_type":"brewpub","street":"202B Harrison St SE","address_2":null,"address_3":null,"city":"Leesburg","state":"Virginia","county_province":null,"postal_code":"20175-3701","country":"United States","longitude":"-77.56266978","latitude":"39.11221609","phone":"7037772739","website_url":"http://www.macdowellbrewkitchen.com","updated_at":"2021-10-23T02:24:55.243Z","created_at":"2021-10-23T02:24:55.243Z"},{"id":"crooked-run-brewing-leesburg","name":"Crooked Run Brewing","brewery_type":"micro","street":"205 Harrison St SE","address_2":null,"address_3":null,"city":"Leesburg","state":"Virginia","county_province":null,"postal_code":"20175-3702","country":"United States","longitude":"-77.56287085","latitude":"39.11226781","phone":"5713752652","website_url":"http://crookedrunbrewing.com","updated_at":"2021-10-23T02:24:55.243Z","created_at":"2021-10-23T02:24:55.243Z"},{"id":"bike-trale-brewing-leesburg","name":"Bike TrAle Brewing","brewery_type":"micro","street":"101 Loudoun St SE","address_2":null,"address_3":null,"city":"Leesburg","state":"Virginia","county_province":null,"postal_code":"20175-3106","country":"United States","longitude":"-77.562422","latitude":"39.113418","phone":"5712930050","website_url":"http://www.BikeTrAleBrewing.com","updated_at":"2021-10-23T02:24:55.243Z","created_at":"2021-10-23T02:24:55.243Z"},{"id":"black-walnut-brewery-leesburg","name":"Black Walnut Brewery","brewery_type":"micro","street":"210 S King St","address_2":null,"address_3":null,"city":"Leesburg","state":"Virginia","county_province":null,"postal_code":"20175-3010","country":"United States","longitude":"-77.5649731","latitude":"39.1127558","phone":"7037719474","website_url":null,"updated_at":"2021-10-23T02:24:55.243Z","created_at":"2021-10-23T02:24:55.243Z"},{"id":"black-hoof-brewing-leesburg","name":"Black Hoof Brewing","brewery_type":"micro","street":"11 S King St","address_2":null,"address_3":null,"city":"Leesburg","state":"Virginia","county_province":null,"postal_code":"20175-2903","country":"United States","longitude":"-77.5648925","latitude":"39.1150351","phone":"5717078014","website_url":null,"updated_at":"2021-10-23T02:24:55.243Z","created_at":"2021-10-23T02:24:55.243Z"},{"id":"brookeville-beer-farm-brookeville","name":"Brookeville Beer Farm","brewery_type":"micro","street":"20315 Georgia Ave","address_2":null,"address_3":null,"city":"Brookeville","state":"Maryland","county_province":null,"postal_code":"20833-1711","country":"United States","longitude":"-77.0579247","latitude":"39.1780888","phone":"3012601000","website_url":"http://www.brookevillebeerfarm.com","updated_at":"2021-10-23T02:24:55.243Z","created_at":"2021-10-23T02:24:55.243Z"},{"id":"dragon-hops-brewing-purcellville","name":"Dragon Hops Brewing","brewery_type":"micro","street":"130 E Main St","address_2":null,"address_3":null,"city":"Purcellville","state":"Virginia","county_province":null,"postal_code":"20132-3162","country":"United States","longitude":"-77.69298485","latitude":"39.1360524","phone":"5404413279","website_url":"http://www.dragonhopsbrewing.com","updated_at":"2021-10-23T02:24:55.243Z","created_at":"2021-10-23T02:24:55.243Z"},{"id":"belly-love-brewing-company-purcellville","name":"Belly Love Brewing Company","brewery_type":"brewpub","street":"725 E Main St","address_2":null,"address_3":null,"city":"Purcellville","state":"Virginia","county_province":null,"postal_code":"20132-3178","country":"United States","longitude":"-77.7015903","latitude":"39.1364247","phone":"5404413159","website_url":"http://www.bellylovebrewing.com","updated_at":"2021-10-23T02:24:55.243Z","created_at":"2021-10-23T02:24:55.243Z"},{"id":"jacks-run-brewing-co-purcellville","name":"Jack's Run Brewing Co","brewery_type":"micro","street":"108 North 21st Street","address_2":null,"address_3":null,"city":"Purcellville","state":"Virginia","county_province":null,"postal_code":"20132","country":"United States","longitude":"-77.71491185","latitude":"39.13704895","phone":"5404413382","website_url":"http://www.jacksrunbrewing.com","updated_at":"2021-10-23T02:24:55.243Z","created_at":"2021-10-23T02:24:55.243Z"}]